[{"nombre": "Planet Organic Food&Life", "latitud": 40.428808, "longitud": -3.681333, "direcci\u00f3n": ["63 Calle Castell\u00f3", "28001 Madrid Madrid", "Espa\u00f1a"], "location": {"type": "Point", "coordinates": [40.428808, -3.681333]}}, {"nombre": "Swagat Indian Restaurant", "latitud": 40.424512747185425, "longitud": -3.683114294018983, "direcci\u00f3n": ["Nu\u00f1ez de Balboa, 29 (esq. Goya)", "28001 Madrid Madrid", "Espa\u00f1a"], "location": {"type": "Point", "coordinates": [40.424512747185425, -3.683114294018983]}}, {"nombre": "Bunny's Deli", "latitud": 40.423935, "longitud": -3.6971583, "direcci\u00f3n": ["Calle San Gregorio 17", "28004 Madrid Madrid", "Espa\u00f1a"], "location": {"type": "Point", "coordinates": [40.423935, -3.6971583]}}, {"nombre": "Le Pain Quotidien", "latitud": 40.4268909, "longitud": -3.6877543, "direcci\u00f3n": ["C/ Serrano, 27", "28001 Madrid Madrid", "Espa\u00f1a"], "location": {"type": "Point", "coordinates": [40.4268909, -3.6877543]}}, {"nombre": "Roots", "latitud": 40.424572, "longitud": -3.6955872, "direcci\u00f3n": ["C. Fernando VI", "28004 Madrid Madrid", "Espa\u00f1a"], "location": {"type": "Point", "coordinates": [40.424572, -3.6955872]}}, {"nombre": "La Galette 2 - Casa Escondida", "latitud": 40.423449262141645, "longitud": -3.69254024923133, "direcci\u00f3n": ["C. Do\u00f1a B\u00e1rbara de Braganza, 10", "28004 Madrid Madrid", "Espa\u00f1a"], "location": {"type": "Point", "coordinates": [40.423449262141645, -3.69254024923133]}}, {"nombre": "Fit Food Vel\u00e1zquez 39", "latitud": 40.42603396100617, "longitud": -3.6841320991516113, "direcci\u00f3n": ["Vel\u00e1zquez 39", "28002 madrid madrdi", "Espa\u00f1a"], "location": {"type": "Point", "coordinates": [40.42603396100617, -3.6841320991516113]}}, {"nombre": "Honest Greens", "latitud": 40.428914, "longitud": -3.687266, "direcci\u00f3n": ["28001 Madrid Madrid", "Espa\u00f1a"], "location": {"type": "Point", "coordinates": [40.428914, -3.687266]}}, {"nombre": "Fresc Co", "latitud": 40.423412355084764, "longitud": -3.6756471459774516, "direcci\u00f3n": ["C. Narv\u00e1ez, 9", "28009 Madrid Madrid", "Espa\u00f1a"], "location": {"type": "Point", "coordinates": [40.423412355084764, -3.6756471459774516]}}, {"nombre": "Swagat II Indian Restaurant", "latitud": 40.43584381433536, "longitud": -3.672426984943857, "direcci\u00f3n": ["C. Cartagena, 82", "28028 Madrid Madrid", "Espa\u00f1a"], "location": {"type": "Point", "coordinates": [40.43584381433536, -3.672426984943857]}}, {"nombre": "Goiko Grill", "latitud": 40.437772891427834, "longitud": -3.686615310483156, "direcci\u00f3n": ["C. Mar\u00eda de Molina, 20", "28006 Madrid Madrid", "Espa\u00f1a"], "location": {"type": "Point", "coordinates": [40.437772891427834, -3.686615310483156]}}, {"nombre": "Olivia Te Cuida", "latitud": 40.425803173477185, "longitud": -3.695799480410735, "direcci\u00f3n": ["C. Santa Teresa, 8", "28010 Madrid Madrid", "Espa\u00f1a"], "location": {"type": "Point", "coordinates": [40.425803173477185, -3.695799480410735]}}]